,City ID,City,Country,Latitude,Longitude,Max Temp (F),Humidity (%),Cloudiness (%),Wind Speed (mph),Date
0,3833367,Ushuaia,AR,-54.8,-68.3,46.4,63,40,18.34,1603042331
1,964432,Port Alfred,ZA,-33.59,26.89,63.0,79,50,9.95,1603042072
2,2075265,Busselton,AU,-33.65,115.33,61.0,49,3,9.48,1603042331
3,1067565,Beloha,MG,-25.17,45.05,66.06,77,0,18.28,1603042089
5,3366880,Hermanus,ZA,-34.42,19.23,64.0,68,61,5.08,1603042331
8,3652764,Puerto Ayora,EC,-0.74,-90.35,77.0,73,75,16.11,1603042072
13,6201424,Mataura,NZ,-46.19,168.86,46.99,92,100,1.01,1603042332
15,2063036,Port Lincoln,AU,-34.73,135.87,52.36,79,1,9.53,1603042068
22,3874787,Punta Arenas,CL,-53.15,-70.92,46.4,65,75,24.16,1603042142
24,2063042,Port Hedland,AU,-20.32,118.57,71.6,83,0,10.29,1603042332
26,4030556,Rikitea,PF,-23.12,-134.97,74.89,79,78,21.09,1603042333
29,1015776,Bredasdorp,ZA,-34.53,20.04,62.6,72,61,5.82,1603042087
30,1006984,East London,ZA,-33.02,27.91,62.6,72,50,10.29,1603042333
32,2074865,Carnarvon,AU,-24.87,113.63,69.8,83,75,12.75,1603042333
35,921786,Mitsamiouli,KM,-11.38,43.28,77.0,88,75,2.24,1603042334
39,2163355,Hobart,AU,-42.88,147.33,48.2,76,75,6.93,1603042319
40,3395981,Maceió,BR,-9.67,-35.74,84.2,58,75,11.41,1603042180
41,3664659,Carauari,BR,-4.88,-66.9,94.51,44,100,1.12,1603042334
43,3356832,Henties Bay,NA,-22.12,14.28,61.0,87,1,3.0,1603042334
47,882100,Rusape,ZW,-18.53,32.13,67.55,37,65,5.84,1603042335
49,3356343,Karasburg,NA,-28.02,18.75,83.5,13,6,14.36,1603042127
52,3347353,Menongue,AO,-14.66,17.69,77.63,18,0,5.23,1603042335
54,3407010,Assaré,BR,-6.87,-39.88,98.6,15,100,8.75,1603042335
59,1651810,Airai,TL,-8.93,125.41,60.82,71,28,2.1,1603042336
64,3661980,Tarauacá,BR,-8.16,-70.77,93.4,41,39,5.57,1603042336
68,2260401,Djambala,CG,-2.54,14.75,70.07,89,96,3.24,1603042337
70,1106677,Bambous Virieux,MU,-20.34,57.76,75.2,69,40,8.05,1603042337
73,4032243,Vaini,TO,-21.2,-175.2,69.8,88,75,10.29,1603042337
75,2094027,Kieta,PG,-6.22,155.63,78.94,76,87,1.21,1603042337
78,1282256,Hithadhoo,MV,-0.6,73.08,83.7,77,100,16.28,1603042082
83,2155415,New Norfolk,AU,-42.78,147.06,48.2,76,75,6.93,1603042073
84,4035715,Avarua,CK,-21.21,-159.78,69.8,94,50,5.82,1603042157
85,3401148,Cururupu,BR,-1.83,-44.87,88.0,54,98,7.76,1603042338
88,1633419,Padang,ID,-0.95,100.35,78.46,76,74,3.47,1603042338
89,3466980,Caravelas,BR,-17.71,-39.25,77.77,67,44,10.94,1603042338
90,2082539,Merauke,ID,-8.47,140.33,78.67,82,100,10.98,1603042149
91,2071860,Esperance,AU,-33.87,121.9,55.4,87,94,10.29,1603042066
95,1636308,Manokwari,ID,-0.87,134.08,80.67,75,100,3.94,1603042094
96,3466704,Castro,BR,-24.79,-50.01,71.51,67,100,7.72,1603042339
98,3397967,Itaituba,BR,-4.28,-55.98,101.95,26,70,4.07,1603042339
100,878549,Zvishavane,ZW,-20.33,30.07,79.99,25,0,5.77,1603042339
103,2206939,Bluff,NZ,-46.6,168.33,46.99,92,100,1.01,1603042339
107,3430863,Mar del Plata,AR,-38.0,-57.56,78.8,74,68,6.93,1603042340
109,3443061,Chui,UY,-33.7,-53.46,77.67,47,0,7.16,1603042340
114,885800,Mount Darwin,ZW,-16.77,31.58,77.56,24,3,4.54,1603042340
120,3899695,Ancud,CL,-41.87,-73.82,55.0,87,90,20.8,1603042341
121,3386177,Trairi,BR,-3.28,-39.27,85.37,54,70,16.2,1603042314
125,2194098,Ahipara,NZ,-35.17,173.17,56.25,93,61,6.85,1603042341
126,3457817,Marau,BR,-28.45,-52.2,85.68,34,0,0.72,1603042341
128,933178,Pandamatenga,BW,-18.53,25.63,79.11,17,0,5.35,1603042342
130,4033557,Tautira,PF,-17.73,-149.15,78.8,78,40,2.24,1603042342
134,3883457,Lebu,CL,-37.62,-73.65,55.58,63,0,9.08,1603042342
137,2068079,Kwinana,AU,-32.25,115.77,62.01,100,0,9.17,1603042342
139,3658053,El Triunfo,EC,-1.93,-79.97,86.0,58,20,10.29,1603042343
140,3663475,Maraã,BR,-1.83,-65.37,89.89,54,32,1.61,1603042343
141,2180815,Tuatapere,NZ,-46.13,167.68,46.99,92,100,1.01,1603042343
144,1045114,Inhambane,MZ,-23.86,35.38,75.2,69,0,11.41,1603042343
153,4020109,Atuona,PF,-9.8,-139.03,77.95,77,15,18.43,1603042344
155,3908339,Patacamaya,BO,-17.23,-67.92,57.33,37,87,9.78,1603042344
159,986717,Kruisfontein,ZA,-34.0,24.73,60.01,73,22,4.63,1603042344
163,4036284,Alofi,NU,-19.06,-169.92,77.0,94,87,3.36,1603042107
165,2142316,Yeppoon,AU,-23.13,150.73,66.2,82,3,4.88,1603042345
166,2094342,Kavieng,PG,-2.57,150.8,81.97,76,28,10.6,1603042345
167,934322,Mahébourg,MU,-20.41,57.7,75.2,69,40,8.05,1603042345
169,3450083,Santa Maria,BR,-29.68,-53.81,87.28,41,0,3.53,1603042319
171,3369157,Cape Town,ZA,-33.93,18.42,63.0,72,20,14.99,1603042256
172,218680,Boende,CD,-0.22,20.87,73.58,95,99,2.42,1603042345
173,3691582,Talara,PE,-4.58,-81.27,69.19,73,33,21.74,1603042131
174,2177671,Armidale,AU,-30.52,151.65,48.99,93,100,1.01,1603042346
175,1054329,Vangaindrano,MG,-23.35,47.6,68.88,86,97,5.7,1603042346
179,935215,Saint-Philippe,RE,-21.36,55.77,73.4,73,23,8.05,1603042346
187,1024552,Xai-Xai,MZ,-25.05,33.64,78.3,57,0,13.47,1603042347
188,935214,Saint-Pierre,RE,-21.34,55.48,73.4,73,3,8.05,1603042347
190,3435038,Dolores,AR,-36.31,-57.68,86.61,55,20,7.0,1603042347
195,3691954,Sechura,PE,-5.56,-80.82,77.4,53,16,15.99,1603042348
197,6355222,Yulara,AU,-25.24,130.99,68.0,88,90,14.99,1603042348
199,1621655,Weleri,ID,-6.97,110.07,64.99,73,98,3.38,1603042348
200,3386213,Touros,BR,-5.2,-35.46,84.2,66,40,10.29,1603042069
214,2146219,Hervey Bay,AU,-25.3,152.85,66.99,82,50,4.7,1603042350
223,8079926,Labuhan,ID,-6.88,112.21,79.29,79,55,7.45,1603042351
225,3361934,Saldanha,ZA,-33.01,17.94,64.4,59,38,16.11,1603042351
226,2064735,Nhulunbuy,AU,-12.23,136.77,73.4,88,69,4.81,1603042351
228,3936456,Lima,PE,-12.04,-77.03,66.2,68,90,4.7,1603042157
232,3471451,Arraial do Cabo,BR,-22.97,-42.03,77.0,69,40,18.34,1603042351
235,3355672,Lüderitz,NA,-26.65,15.16,70.0,42,0,24.29,1603042071
237,964420,Port Elizabeth,ZA,-33.92,25.57,60.8,82,28,11.41,1603042105
239,893549,Chipinge,ZW,-20.19,32.62,66.88,60,3,6.31,1603042352
241,3456642,Mozarlândia,BR,-14.74,-50.57,98.08,25,47,5.93,1603042352
242,962367,Richards Bay,ZA,-28.78,32.04,73.17,81,29,13.53,1603042352
244,933995,Souillac,MU,-20.52,57.52,75.2,69,40,8.05,1603042353
245,3461370,Imbituba,BR,-28.24,-48.67,77.0,57,40,16.11,1603042353
247,3664956,Boca do Acre,BR,-8.75,-67.4,96.91,34,53,2.82,1603042353
249,3466165,Cidreira,BR,-30.18,-50.21,71.8,70,95,17.45,1603042072
251,2182010,Tairua,NZ,-37.02,175.85,55.99,84,46,4.56,1603042353
253,1650434,Bambanglipuro,ID,-7.95,110.28,77.09,85,98,8.25,1603042276
256,232490,Lukaya,UG,-0.15,31.87,69.8,88,20,4.7,1603042354
261,904422,Mumbwa,ZM,-14.98,27.06,74.95,20,25,5.99,1603042354
262,2093846,Kiunga,PG,-6.12,141.29,73.24,99,100,1.72,1603042355
268,2070998,Geraldton,AU,-28.77,114.6,60.8,87,1,5.82,1603042355
269,3430545,Morón,AR,-34.65,-58.62,93.99,49,19,10.29,1603042355
272,2152659,Port Macquarie,AU,-31.43,152.92,61.0,99,100,1.01,1603042356
273,1071296,Antalaha,MG,-14.9,50.28,71.49,80,0,8.16,1603042356
275,1649150,Bengkulu,ID,-3.8,102.27,75.63,88,90,6.33,1603042356
276,3893726,Constitución,CL,-35.33,-72.42,59.7,55,0,16.55,1603042215
278,1635815,Maumere,ID,-8.62,122.21,79.47,77,15,3.49,1603042356
280,3459435,Juquitiba,BR,-23.93,-47.07,77.0,57,75,6.93,1603042356
284,3932145,Pisco,PE,-13.7,-76.22,64.99,82,90,6.93,1603042357
285,2171099,Codrington,AU,-38.27,141.97,46.92,93,29,6.38,1603042357
289,3471846,Araçuaí,BR,-16.85,-42.07,86.83,40,86,6.55,1603042184
291,2092164,Lorengau,PG,-2.02,147.27,81.9,77,37,7.56,1603042357
292,6690296,Saint-Joseph,RE,-21.37,55.62,73.4,73,15,8.05,1603042138
293,3435261,Concordia,AR,-31.39,-58.02,86.74,55,1,10.04,1603042357
294,2176639,Batemans Bay,AU,-35.72,150.18,55.99,71,86,1.19,1603042358
295,3401188,Curuçá,BR,-0.73,-47.85,85.73,63,82,9.37,1603042358
309,934649,Cap Malheureux,MU,-19.98,57.61,73.0,70,1,3.0,1603042359
311,7647007,Bariloche,AR,-41.15,-71.31,53.6,37,20,34.45,1603042359
316,2400547,Gamba,GA,-2.65,10.0,77.49,87,100,7.96,1603042360
317,3665202,Aripuanã,BR,-9.17,-60.63,91.09,46,88,1.86,1603042360
322,55671,Kismayo,SO,-0.36,42.55,78.76,76,71,12.77,1603042360
323,2186111,Ngunguru,NZ,-35.62,174.5,51.01,94,30,1.01,1603042360
331,2065594,Mount Isa,AU,-20.73,139.5,82.4,26,21,10.29,1603042361
332,158825,Izazi,TZ,-7.2,35.73,73.4,46,20,11.41,1603042361
334,3440777,Rocha,UY,-34.48,-54.33,81.32,66,14,9.4,1603042361
337,2158767,Mareeba,AU,-17.0,145.43,69.01,88,41,2.21,1603042361
341,2208248,Kaitangata,NZ,-46.28,169.85,48.99,91,100,1.99,1603042362
346,3832899,Viedma,AR,-40.81,-63.0,80.01,13,2,13.0,1603042362
349,3449176,São Francisco,BR,-15.95,-44.86,90.54,37,7,4.61,1603042362
358,3448903,São João da Barra,BR,-21.64,-41.05,78.8,57,75,18.34,1603042363
359,159179,Ilula,TZ,-7.68,36.04,73.4,46,20,11.41,1603042363
361,2109528,Buala,SB,-8.14,159.59,80.08,77,89,1.72,1603042135
362,3839307,Rawson,AR,-43.3,-65.1,70.9,22,0,16.89,1603042363
364,2136825,Isangel,VU,-19.55,169.27,70.21,72,2,4.45,1603042364
368,2179670,Wanganui,NZ,-39.93,175.05,54.0,79,100,1.99,1603042352
371,2093685,Kokopo,PG,-4.35,152.26,77.23,85,97,2.42,1603042364
372,2181625,Te Anau,NZ,-45.42,167.72,43.75,92,100,1.28,1603042364
376,1627035,Simpang,ID,-1.27,104.08,75.09,86,41,2.06,1603042365
377,2145554,Ulladulla,AU,-35.35,150.47,55.99,100,90,9.17,1603042365
378,3842670,Olavarría,AR,-36.89,-60.32,80.01,72,20,5.99,1603042365
382,6316343,Alta Floresta,BR,-9.88,-56.09,97.66,29,64,1.25,1603042365
383,3694564,Moyobamba,PE,-6.05,-76.97,83.73,50,9,3.76,1603042365
387,3394539,Montes Altos,BR,-5.83,-47.07,100.45,20,64,6.53,1603042365
388,2170089,Craigieburn,AU,-37.6,144.95,48.0,93,20,5.82,1603042266
403,1651531,Ambon City,ID,-3.7,128.18,79.0,92,97,6.15,1603042367
404,2156643,Mount Gambier,AU,-37.83,140.77,48.2,100,90,6.93,1603042367
410,889215,Kariba,ZW,-16.52,28.8,81.88,27,32,5.28,1603042367
411,2109701,Auki,SB,-8.77,160.7,78.53,81,77,3.71,1603042367
412,3470825,Bariri,BR,-22.07,-48.74,87.01,40,50,1.99,1603042368
414,3466901,Carmo do Rio Claro,BR,-20.97,-46.12,80.6,52,66,6.4,1603042368
417,2090021,Namatanai,PG,-3.67,152.43,79.84,75,93,6.26,1603042368
419,3445026,Vila Velha,BR,-20.33,-40.29,78.01,69,75,8.05,1603042368
421,3899539,Antofagasta,CL,-23.65,-70.4,60.8,77,90,9.17,1603042368
422,3694112,Paita,PE,-5.09,-81.11,70.34,68,15,19.35,1603042368
428,4035249,Lufilufi,WS,-13.87,-171.6,75.2,100,40,4.7,1603042369
430,3698359,Chicama,PE,-7.84,-79.15,68.0,72,43,12.75,1603042163
434,934479,Grand Gaube,MU,-20.01,57.66,73.0,70,0,3.0,1603042370
435,3460064,Jatai,BR,-17.88,-51.71,82.09,52,59,8.68,1603042370
439,2098329,Daru,PG,-9.08,143.21,78.58,86,99,10.6,1603042370
443,2068110,Kununurra,AU,-15.77,128.73,82.4,78,29,4.7,1603042370
446,1642773,Japura,ID,-0.32,102.35,75.15,96,78,1.01,1603042371
447,3470137,Belmonte,BR,-15.86,-38.88,78.8,69,75,9.17,1603042310
449,3452900,Porto Belo,BR,-27.16,-48.55,78.01,73,20,8.05,1603042371
457,3692029,Saposoa,PE,-6.93,-76.77,87.8,58,40,3.36,1603042372
459,6620339,Karratha,AU,-20.74,116.85,68.04,72,0,13.4,1603042147
462,3662927,Pauini,BR,-7.71,-66.98,93.7,42,82,4.14,1603042372
465,2101169,Aitape,PG,-3.14,142.35,77.58,85,97,3.42,1603042373
468,923058,Kambove,CD,-10.88,26.6,69.84,49,1,4.63,1603042373
472,2108857,Gizo Government Station,SB,-8.1,156.84,81.61,71,100,5.01,1603042129
476,1047660,Cuamba,MZ,-14.8,36.54,81.68,18,2,3.87,1603042374
478,207570,Mwene-Ditu,CD,-7.0,23.45,71.2,83,92,0.87,1603042374
482,3901969,Urubichá,BO,-15.38,-62.95,102.69,21,29,5.86,1603042374
485,2315026,Kasongo-Lunda,CD,-6.47,16.82,73.45,89,68,2.8,1603042375
492,4034551,Faanui,PF,-16.48,-151.75,78.66,82,19,9.17,1603042375
498,2172797,Cairns,AU,-16.92,145.77,69.01,88,29,3.85,1603042286
507,1639337,Kroya,ID,-7.63,109.25,64.99,86,100,6.82,1603042377
514,6255012,Flinders,AU,-34.58,150.86,59.0,83,73,1.01,1603042377
518,3430443,Necochea,AR,-38.55,-58.74,66.54,62,36,12.15,1603042378
520,933677,Kasane,BW,-17.82,25.15,84.2,14,0,6.93,1603042378
522,3451138,Rio Grande,BR,-32.03,-52.1,81.0,61,0,5.01,1603042378
526,1623197,Tual,ID,-5.67,132.75,80.31,82,97,13.35,1603042379
529,3893629,Coquimbo,CL,-29.95,-71.34,57.2,82,75,10.29,1603042379
531,3404558,Cabedelo,BR,-6.98,-34.83,86.0,55,40,14.99,1603042379
533,2175403,Blackwater,AU,-23.58,148.88,63.05,79,0,4.81,1603042379
540,214575,Kampene,CD,-3.6,26.67,70.12,94,100,2.1,1603042380
542,1106643,Quatre Cocos,MU,-20.21,57.76,75.2,69,40,8.05,1603042380
544,3463124,Formosa do Rio Preto,BR,-11.05,-45.19,97.84,20,25,8.3,1603042380
545,4032420,Neiafu,TO,-18.65,-173.98,73.4,83,75,15.17,1603042380
546,1642858,Jambi City,ID,-1.6,103.62,73.99,96,38,3.42,1603042380
548,3398428,Humberto de Campos,BR,-2.6,-43.46,89.78,48,93,11.54,1603042381
551,3945985,Camaná,PE,-16.62,-72.71,65.34,67,70,6.17,1603042156
553,3439525,Young,UY,-32.68,-57.63,86.83,57,1,6.69,1603042381
